{"30": {"information": {"general-info": null, "payment-method": null, "hours": null, "location": null, "aka": "Prep And Pastry", "categories": ["Bakeries,", "Breakfast,", "Brunch", "&", "Lunch", "Restaurants,", "Restaurants"]}, "name": "Prep & Pastry", "locality": "Tucson", "website-url": "http://prepandpastry.com", "region": "AZ", "id": 30, "street-address": "3073 N Campbell Ave", "phone-number": "(520) 326-7737", "postal-code": "85719"}, "31": {"information": {"general-info": null, "payment-method": null, "hours": null, "location": "Grantstone Shopping Ctr", "aka": null, "categories": ["Donut", "Shops,", "Bakeries,", "Restaurants"]}, "name": "Donut King", "locality": "Tucson", "website-url": "http://donutking.net", "region": "AZ", "id": 31, "street-address": "150 W Grant Rd", "phone-number": "(520) 623-7260", "postal-code": "85705"}, "32": {"information": {"general-info": null, "payment-method": null, "hours": null, "location": null, "aka": null, "categories": ["Bakeries"]}, "name": "La Estrella Bakery Inc", "locality": "Tucson", "website-url": "http://laestrellabakeryincaz.com", "region": "AZ", "id": 32, "street-address": "100 S Avenida Del Convento", "phone-number": "(520) 344-8463", "postal-code": "85745"}, "33": {"information": {"general-info": null, "payment-method": null, "hours": null, "location": null, "aka": null, "categories": ["Bakeries,", "Wedding", "Supplies", "&", "Services,", "Restaurants"]}, "name": "Cakes By Clara", "locality": "Tucson", "website-url": null, "region": "AZ", "id": 33, "street-address": "3419 N 1st Ave", "phone-number": "(520) 292-8567", "postal-code": "85719"}, "34": {"information": {"general-info": null, "payment-method": null, "hours": {"Mo-Su": "06:00-21:00"}, "location": null, "aka": null, "categories": ["Donut", "Shops,", "Bakeries,", "Restaurants"]}, "name": "Donut Wheel", "locality": "Tucson", "website-url": "http://donutwheel.com", "region": "AZ", "id": 34, "street-address": "4801 S Campbell Ave", "phone-number": "(520) 889-2238", "postal-code": "85714"}, "35": {"information": {"general-info": null, "payment-method": null, "hours": {"Sa": "08:00-12:00", "Mo-Fr": "06:00-15:00"}, "location": null, "aka": "Fresh Cafe", "categories": ["Coffee", "&", "Tea,", "Bakeries,", "Restaurants"]}, "name": "Fresh", "locality": "Tucson", "website-url": null, "region": "AZ", "id": 35, "street-address": "2404 E River Rd Ste Ste 132", "phone-number": "(520) 505-4470", "postal-code": "85718"}, "36": {"information": {"general-info": null, "payment-method": null, "hours": null, "location": null, "aka": null, "categories": ["Donut", "Shops,", "Bakeries,", "Restaurants"]}, "name": "Donut Wheel", "locality": "Tucson", "website-url": "http://donutwheel.com", "region": "AZ", "id": 36, "street-address": "2630 S Kolb Rd", "phone-number": "(520) 748-8129", "postal-code": "85730"}, "37": {"information": {"general-info": null, "payment-method": null, "hours": null, "location": null, "aka": null, "categories": ["Grocery", "Stores,", "Florists,", "Delicatessens,", "Bakeries"]}, "name": "Market Basket", "locality": "Tucson", "website-url": "http://www.marketbasketfoods.com", "region": "AZ", "id": 37, "street-address": "5242 S 12th Ave", "phone-number": "(520) 294-1891", "postal-code": "85706"}, "38": {"information": {"general-info": null, "payment-method": ["check,", "paypal"], "hours": null, "location": "La Encantada", "aka": null, "categories": ["Wholesale", "Bakeries,", "Bakeries"]}, "name": "Red Velvet", "locality": "Tucson", "website-url": "http://www.redvelvetcupcakery.com", "region": "AZ", "id": 38, "street-address": "2905 E Skyline Dr", "phone-number": "(520) 395-1373", "postal-code": "85718"}, "39": {"information": {"general-info": null, "payment-method": null, "hours": null, "location": null, "aka": null, "categories": ["Bakeries,", "Cake", "Decorating", "Equipment", "&", "Supplies,", "Wedding", "Cakes", "&", "Pastries"]}, "name": "Ambrosia Of Tucson", "locality": "Tucson", "website-url": "http://www.ambrosiaoftucson.com", "region": "AZ", "id": 39, "street-address": "7051 N Oracle Rd", "phone-number": "(520) 390-9319", "postal-code": "85704"}, "40": {"information": {"general-info": null, "payment-method": null, "hours": null, "location": null, "aka": "Queen Donuts 2", "categories": ["Donut", "Shops,", "Bakeries,", "Restaurants"]}, "name": "Queen Donuts", "locality": "Tucson", "website-url": null, "region": "AZ", "id": 40, "street-address": "5975 W Western Way Cir", "phone-number": "(520) 908-3280", "postal-code": "85713"}, "41": {"information": {"general-info": null, "payment-method": null, "hours": null, "location": null, "aka": "Sonya's Bunz In The Oven Bakery", "categories": ["Bakeries"]}, "name": "Bunz In The Oven Bakery", "locality": "Tucson", "website-url": "http://www.cakegourmet.com", "region": "AZ", "id": 41, "street-address": "6781 N Thornydale Rd Ste 229", "phone-number": "(520) 531-1011", "postal-code": "85741"}, "42": {"information": {"general-info": null, "payment-method": null, "hours": null, "location": null, "aka": null, "categories": ["Bakeries"]}, "name": "Kaity Kakes", "locality": "Tucson", "website-url": "http://www.kaitykakes.com", "region": "AZ", "id": 42, "street-address": "10547 E Marchetti Loop", "phone-number": "(520) 780-2072", "postal-code": "85747"}, "43": {"information": {"general-info": null, "payment-method": null, "hours": null, "location": null, "aka": null, "categories": ["Cookies", "&", "Crackers,", "Grocery", "Stores,", "Bakeries"]}, "name": "Cookie Wagon", "locality": "Tucson", "website-url": null, "region": "AZ", "id": 43, "street-address": "6910 N Camino Martin", "phone-number": "(520) 742-7626", "postal-code": "85741"}, "44": {"information": {"general-info": null, "payment-method": null, "hours": null, "location": null, "aka": null, "categories": ["Bakeries"]}, "name": "Traditions Bakery", "locality": "Tucson", "website-url": null, "region": "AZ", "id": 44, "street-address": "10604 N Oracle Rd", "phone-number": "(520) 219-0953", "postal-code": "85737"}, "45": {"information": {"general-info": null, "payment-method": null, "hours": null, "location": null, "aka": null, "categories": ["Bakeries"]}, "name": "Breadsmith", "locality": "Tucson", "website-url": null, "region": "AZ", "id": 45, "street-address": "10355 N La Canada Dr", "phone-number": "(520) 219-7985", "postal-code": "85737"}, "46": {"information": {"general-info": null, "payment-method": null, "hours": null, "location": "Arizona Pavilions Shopping Ctr", "aka": null, "categories": ["Bakeries,", "Tortillas,", "Pies"]}, "name": "Walmart - Bakery", "locality": "Tucson", "website-url": "http://www.walmart.com", "region": "AZ", "id": 46, "street-address": "8280 N Cortaro Rd", "phone-number": "(520) 744-6012", "postal-code": "85743"}, "47": {"information": {"general-info": null, "payment-method": null, "hours": null, "location": null, "aka": null, "categories": ["Bakeries"]}, "name": "Cinnabon", "locality": "Tucson", "website-url": "http://www.cinnabon.com", "region": "AZ", "id": 47, "street-address": "5570 E Travel Plaza Way", "phone-number": "(520) 663-3348", "postal-code": "85756"}, "48": {"information": {"general-info": null, "payment-method": null, "hours": null, "location": null, "aka": null, "categories": ["Wholesale", "Bakeries,", "Bakeries"]}, "name": "Grass Roots", "locality": "Tucson", "website-url": null, "region": "AZ", "id": 48, "street-address": null, "phone-number": "(520) 623-7240", "postal-code": "85703"}, "49": {"information": {"general-info": null, "payment-method": null, "hours": null, "location": null, "aka": null, "categories": ["Bakeries"]}, "name": "Sugar Sweet Bakery", "locality": "Tucson", "website-url": null, "region": "AZ", "id": 49, "street-address": null, "phone-number": "(520) 881-1138", "postal-code": "85701"}, "50": {"information": {"general-info": null, "payment-method": ["discover,", "master", "card,", "visa,", "paypal"], "hours": {"Mo-Sa": "06:00-19:00", "Su": "06:00-14:00"}, "location": null, "aka": null, "categories": ["Bakeries,", "Wholesale", "Bakeries"]}, "name": "La Estrella Bakery", "locality": "Tucson", "website-url": "http://laestrellabakery.com", "region": "AZ", "id": 50, "street-address": "5266 S 12th Ave", "phone-number": "(520) 741-0656", "postal-code": "85706"}, "51": {"information": {"general-info": "Viro's Real Italian Bakery is a restaurant that offers a variety of deli items to customers in Tucson in Arizona. The restaurant specializes in traditional Italian and homemade pasta dishes. It offers fresh-baked breads, Italian panini sandwiches, fish fries, pastries, cakes and cookies. Viro's Real Italian Bakery also serves a Sunday breakfast buffet, as well as provides catering services. The restaurant offers Reuben, roasted beef, tuna salad, turkey and classic BLT sandwiches. Its menu includes mozzarella sticks, Italian seasoned wings, sausage sub sandwich, meat lasagna and seafood-stuffed shells. Viro's Real Italian Bakery additionally serves a selection of pizzas with toppings, such as pepperoni, pineapple, Canadian bacon, onions, sundried tomatoes, mushrooms, anchovies, and green and black olives.", "payment-method": ["all", "major", "credit", "cards"], "hours": {"Mo-Fr": "09:00-16:00"}, "location": null, "aka": "Viros Italian Bakery", "categories": ["Italian", "Restaurants,", "Mediterranean", "Restaurants,", "Coffee", "Shops,", "Family", "Style", "Restaurants,", "Bakeries,", "Caterers,", "Dessert", "Restaurants,", "Restaurants"]}, "name": "Viro's Real Italian Bakery", "locality": "Tucson", "website-url": "http://www.virosbakery.com", "region": "AZ", "id": 51, "street-address": "8301 E 22nd St", "phone-number": "(520) 885-4045", "postal-code": "85710"}, "52": {"information": {"general-info": null, "payment-method": null, "hours": {"Fr-Sa": "07:00-20:00", "Su": "07:00-15:00", "Tu-Th": "07:00-15:00"}, "location": null, "aka": "Gourmet Girls Gluten Free Bakery Bistro", "categories": ["Bakeries,", "Breakfast,", "Brunch", "&", "Lunch", "Restaurants,", "Restaurants"]}, "name": "Gourmet Girls Gluten Free", "locality": "Tucson", "website-url": "http://www.gourmetgirlsglutenfree.com", "region": "AZ", "id": 52, "street-address": "5845 N Oracle Rd", "phone-number": "(520) 408-9000", "postal-code": "85704"}, "53": {"information": {"general-info": null, "payment-method": ["master", "card,", "visa"], "hours": {"Sa": "08:00-17:00", "Tu-Fr": "07:30-18:00", "Su": "08:00-13:00"}, "location": null, "aka": null, "categories": ["Bakeries,", "Wholesale", "Bakeries,", "Restaurants"]}, "name": "Le Cave's Bakery Inc", "locality": "Tucson", "website-url": null, "region": "AZ", "id": 53, "street-address": "1219 S 6th Ave", "phone-number": "(520) 624-2561", "postal-code": "85713"}, "54": {"information": {"general-info": null, "payment-method": ["all", "major", "credit", "cards,", "check,", "debit"], "hours": {"Sa": "09:00-15:00", "Mo-Fr": "09:00-17:00"}, "location": null, "aka": null, "categories": ["Bakeries"]}, "name": "Marco's Patisserie Bakery", "locality": "Tucson", "website-url": "http://marcosbakery.com", "region": "AZ", "id": 54, "street-address": "3308 E Grant Rd", "phone-number": "(520) 292-8567", "postal-code": "85716"}, "55": {"information": {"general-info": null, "payment-method": null, "hours": null, "location": null, "aka": "Holsum Bakery Inc", "categories": ["Wholesale", "Bakeries,", "Bakeries,", "Restaurants"]}, "name": "Holsum Bakery Outlet", "locality": "Tucson", "website-url": "http://holsum.com", "region": "AZ", "id": 55, "street-address": "2801 S 4th Ave", "phone-number": "(520) 622-8007", "postal-code": "85713"}, "56": {"information": {"general-info": null, "payment-method": null, "hours": {"Mo-Fr": "10:00-18:00", "Su": "10:00-18:00"}, "location": null, "aka": null, "categories": ["Bakeries,", "Wholesale", "Bakeries"]}, "name": "Small Planet Bakery", "locality": "Tucson", "website-url": "http://www.smallplanetbakery.com", "region": "AZ", "id": 56, "street-address": "411 N 7th Ave Ste 101", "phone-number": "(520) 884-9313", "postal-code": "85705"}, "57": {"information": {"general-info": "Bruegger's offers authentic NY-style bagels, perfect for a variety of fresh breakfast & deli sandwiches alongside salads, soups & custom-blended coffee. Breakfast & lunch catering is now available!", "payment-method": null, "hours": {"Mo-Su": "05:30-17:00"}, "location": null, "aka": null, "categories": ["Bagels,", "Sandwich", "Shops,", "Breakfast,", "Brunch", "&", "Lunch", "Restaurants,", "Bakeries,", "Restaurants,", "Coffee", "&", "Espresso", "Restaurants"]}, "name": "Bruegger's", "locality": "Tucson", "website-url": "http://www.brueggers.com", "region": "AZ", "id": 57, "street-address": "5665 N Swan Rd", "phone-number": "(520) 529-7424", "postal-code": "85718"}, "58": {"information": {"general-info": null, "payment-method": null, "hours": null, "location": null, "aka": null, "categories": ["Bakeries,", "Coffee", "Shops,", "Restaurants"]}, "name": "Mimi's Fine Bakery & Cafe", "locality": "Tucson", "website-url": null, "region": "AZ", "id": 58, "street-address": "8517 E Ramona Madera Ln", "phone-number": "(520) 979-2965", "postal-code": "85747"}, "59": {"information": {"general-info": null, "payment-method": null, "hours": null, "location": null, "aka": null, "categories": ["Wholesale", "Bakeries,", "Bagels,", "Bakeries"]}, "name": "Wholesale Bagels Inc", "locality": "Tucson", "website-url": null, "region": "AZ", "id": 59, "street-address": "920 S Warren Ave", "phone-number": "(520) 327-3711", "postal-code": "85719"}}