{"90": {"information": {"general-info": null, "payment-method": null, "hours": null, "location": null, "aka": null, "categories": ["Meat", "Markets,", "Grocery", "Stores,", "Supermarkets", "&", "Super", "Stores"]}, "name": "Carniceria La Noria", "locality": "Tucson", "website-url": null, "region": "AZ", "id": 90, "street-address": "4562 S 6th Ave", "phone-number": "(520) 889-5942", "postal-code": "85714"}, "91": {"information": {"general-info": null, "payment-method": ["discover,", "visa,", "mastercard,", "all", "major", "credit", "cards,", "amex"], "hours": {"Mo-Su": "07:00-20:30"}, "location": null, "aka": "Carnicerla El Herradero", "categories": ["Meat", "Markets,", "Grocery", "Stores"]}, "name": "Carniceria El Herradero", "locality": "Tucson", "website-url": null, "region": "AZ", "id": 91, "street-address": "1285 W Ajo Way", "phone-number": "(520) 295-3715", "postal-code": "85713"}, "92": {"information": {"general-info": null, "payment-method": null, "hours": null, "location": null, "aka": null, "categories": ["Butchering,", "Grocery", "Stores,", "Meat", "Markets"]}, "name": "Mercado & Carniceria El", "locality": "Tucson", "website-url": null, "region": "AZ", "id": 92, "street-address": "1020 W Prince Rd", "phone-number": "(520) 887-1151", "postal-code": "85705"}, "93": {"information": {"general-info": null, "payment-method": null, "hours": null, "location": null, "aka": null, "categories": ["Meat", "Markets"]}, "name": "Super Carniceria El Rodeo", "locality": "Tucson", "website-url": null, "region": "AZ", "id": 93, "street-address": "3901 E Benson Hwy", "phone-number": "(520) 574-4232", "postal-code": "85706"}, "94": {"information": {"general-info": null, "payment-method": null, "hours": null, "location": null, "aka": "Super Carniceria El Herradero", "categories": ["Meat", "Markets"]}, "name": "Super Carneceria El Herradero", "locality": "Tucson", "website-url": "http://www.elherraderomarket.com/locations.html", "region": "AZ", "id": 94, "street-address": "5434 S 12th Ave", "phone-number": "(520) 889-0703", "postal-code": "85706"}, "95": {"information": {"general-info": null, "payment-method": ["amex,", "visa,", "all", "major", "credit", "cards,", "mastercard,", "discover"], "hours": {"Mo": "08:00-18:00", "Tu-Fr": "08:00-19:00", "Sa": "08:00-18:00", "Su": "12:00-17:00"}, "location": "Tucson Marketplace", "aka": null, "categories": ["Meat", "Markets,", "Delicatessens,", "Restaurants"]}, "name": "Dickman's Meat & Deli", "locality": "Tucson", "website-url": null, "region": "AZ", "id": 95, "street-address": "7955 E Broadway Blvd Ste 132", "phone-number": "(520) 885-8020", "postal-code": "85710"}, "96": {"information": {"general-info": null, "payment-method": ["mastercard,", "all", "major", "credit", "cards,", "visa"], "hours": {"Mo-Su": "08:00-20:30"}, "location": null, "aka": null, "categories": ["Meat", "Markets,", "Supermarkets", "&", "Super", "Stores"]}, "name": "Super Carniceria El Ranchito", "locality": "Tucson", "website-url": null, "region": "AZ", "id": 96, "street-address": "6070 S 6th Ave", "phone-number": "(520) 294-5080", "postal-code": "85706"}, "97": {"information": {"general-info": null, "payment-method": ["amex,", "discover,", "all", "major", "credit", "cards,", "visa,", "mastercard"], "hours": {"Mo-Su": "07:30-20:00"}, "location": null, "aka": null, "categories": ["Meat", "Markets"]}, "name": "Supercarniceria Del Valle", "locality": "Tucson", "website-url": null, "region": "AZ", "id": 97, "street-address": "2611 W Drexel Rd", "phone-number": "(520) 578-0102", "postal-code": "85746"}, "98": {"information": {"general-info": null, "payment-method": null, "hours": null, "location": null, "aka": "Los Dos Amigos Meat Market #2", "categories": ["Meat", "Markets,", "Butchering,", "Grocery", "Stores"]}, "name": "Los Dos Amigos Meat Market", "locality": "Tucson", "website-url": "http://www.losdosamigosmeatmarket.lbu.com", "region": "AZ", "id": 98, "street-address": "2848 W Drexel Rd", "phone-number": "(520) 883-9880", "postal-code": "85746"}, "99": {"information": {"general-info": null, "payment-method": null, "hours": {"Mo-Sa": "07:30-20:30", "Su": "07:30-20:00"}, "location": null, "aka": null, "categories": ["Meat", "Markets"]}, "name": "Carniceria El Herradero", "locality": "Tucson", "website-url": null, "region": "AZ", "id": 99, "street-address": "2770 W Valencia Rd", "phone-number": "(520) 883-1166", "postal-code": "85746"}, "100": {"information": {"general-info": null, "payment-method": null, "hours": null, "location": null, "aka": "Mercado Y Carniceria Los Primos LLCMercado Y Carniceria Los Prms", "categories": ["Meat", "Markets,", "Supermarkets", "&", "Super", "Stores,", "Grocery", "Stores"]}, "name": "Mercado Y Carniceria Los Primos", "locality": "Tucson", "website-url": null, "region": "AZ", "id": 100, "street-address": "9895 S Old Nogales Hwy", "phone-number": "(520) 807-0527", "postal-code": "85756"}, "101": {"information": {"general-info": null, "payment-method": null, "hours": {"Mo-Fr": "06:30-15:00"}, "location": null, "aka": "Arizona Barbeque Outfitters", "categories": ["Barbecue", "Restaurants,", "Restaurants"]}, "name": "Az Bbq Outfitters", "locality": "Tucson", "website-url": null, "region": "AZ", "id": 101, "street-address": "1375 E 17th St", "phone-number": "(520) 622-8335", "postal-code": "85719"}, "102": {"information": {"general-info": null, "payment-method": null, "hours": {"Mo-Su": "09:00-15:00"}, "location": null, "aka": "Mama's Hawaiian BBQ", "categories": ["Barbecue", "Restaurants,", "Chinese", "Restaurants,", "Asian", "Restaurants,", "Restaurants"]}, "name": "Mama's Hawaiian Bar-B-Cue", "locality": "Tucson", "website-url": "http://www.mamashawaiianbbq.com", "region": "AZ", "id": 102, "street-address": "850 E Speedway Blvd", "phone-number": "(520) 792-2350", "postal-code": "85719"}, "103": {"information": {"general-info": null, "payment-method": null, "hours": null, "location": null, "aka": "Tilted Kilt Pub & Eatery", "categories": ["Restaurants,", "Taverns,", "Barbecue", "Restaurants,", "American", "Restaurants,", "Bars,", "Bar", "&", "Grills,", "Sports", "Bars"]}, "name": "Tilted Kilt", "locality": "Tucson", "website-url": "http://tiltedkilt.com", "region": "AZ", "id": 103, "street-address": "250 S Craycroft Rd", "phone-number": "(520) 777-5431", "postal-code": "85711"}, "104": {"information": {"general-info": null, "payment-method": null, "hours": null, "location": null, "aka": null, "categories": ["Barbecue", "Restaurants"]}, "name": "Jobob's BBQ", "locality": "Tucson", "website-url": null, "region": "AZ", "id": 104, "street-address": "3231 N Craycroft Rd", "phone-number": "(520) 977-3518", "postal-code": "85712"}, "105": {"information": {"general-info": null, "payment-method": ["amex,", "discover,", "master", "card,", "visa"], "hours": {"We-Sa": "11:00-22:00", "Mo-Tu": "11:00-21:00", "Su": "11:00-21:00"}, "location": null, "aka": null, "categories": ["Barbecue", "Restaurants,", "Chicken", "Restaurants,", "Restaurants"]}, "name": "Wing Factory", "locality": "Tucson", "website-url": "http://www.wingfactorytucson.com", "region": "AZ", "id": 105, "street-address": "6330 E Golf Links Rd Ste 132", "phone-number": "(520) 745-9464", "postal-code": "85730"}, "106": {"information": {"general-info": null, "payment-method": null, "hours": null, "location": null, "aka": null, "categories": ["American", "Restaurants,", "Barbecue", "Restaurants,", "Restaurants,", "Italian", "Restaurants"]}, "name": "Tony Roma's", "locality": "Tucson", "website-url": "http://www.tonyromas.com", "region": "AZ", "id": 106, "street-address": "750 N Kolb Rd", "phone-number": "(520) 722-6668", "postal-code": "85710"}, "107": {"information": {"general-info": null, "payment-method": null, "hours": null, "location": "Northmall Centre", "aka": null, "categories": ["Barbecue", "Restaurants,", "Caterers,", "Restaurants"]}, "name": "Mr K's Barbeque", "locality": "Tucson", "website-url": "http://www.tucsonsbestbbq.com", "region": "AZ", "id": 107, "street-address": "4911 N Stone Ave", "phone-number": "(520) 408-7427", "postal-code": "85704"}, "108": {"information": {"general-info": null, "payment-method": null, "hours": null, "location": null, "aka": null, "categories": ["Barbecue", "Restaurants,", "Restaurants"]}, "name": "Sugar Ray K's BBQ", "locality": "Tucson", "website-url": null, "region": "AZ", "id": 108, "street-address": "6302 S Park Ave", "phone-number": "(520) 396-4548", "postal-code": "85706"}, "109": {"information": {"general-info": null, "payment-method": null, "hours": null, "location": null, "aka": null, "categories": ["Barbecue", "Restaurants,", "Restaurants"]}, "name": "Jay Bacon BBQ", "locality": "Tucson", "website-url": null, "region": "AZ", "id": 109, "street-address": "2510 N Rising Star Trl", "phone-number": "(520) 744-3307", "postal-code": "85745"}, "110": {"information": {"general-info": null, "payment-method": null, "hours": {"Mo-Su": "10:00-21:00"}, "location": "Starrpass Clubhouse", "aka": "Catalina Barbeque Co. & Sports Bar", "categories": ["Barbecue", "Restaurants,", "Bars,", "American", "Restaurants,", "Restaurants"]}, "name": "Catalina Barbeque Co", "locality": "Tucson", "website-url": "http://www.catalinabbqco.com", "region": "AZ", "id": 110, "street-address": "3645 W Starr Pass Blvd", "phone-number": "(520) 670-0444", "postal-code": "85745"}, "111": {"information": {"general-info": null, "payment-method": null, "hours": null, "location": null, "aka": null, "categories": ["Barbecue", "Restaurants,", "Caterers,", "Restaurants"]}, "name": "Bar BQ Ranch", "locality": "Tucson", "website-url": "http://www.bar-bq-ranch.com", "region": "AZ", "id": 111, "street-address": "732 S Front Royal Dr", "phone-number": "(520) 323-3118", "postal-code": "85710"}, "112": {"information": {"general-info": null, "payment-method": null, "hours": {"Mo-Sa": "08:00-17:00"}, "location": null, "aka": null, "categories": ["Barbecue", "Restaurants,", "Banquet", "Halls", "&", "Reception", "Facilities,", "Bars,", "Restaurants"]}, "name": "El Mesquite Comisaria", "locality": "Tucson", "website-url": "http://www.salondeeventoselmezquite.com", "region": "AZ", "id": 112, "street-address": "7130 S Nogales Hwy", "phone-number": "(520) 294-4324", "postal-code": "85756"}, "113": {"information": {"general-info": null, "payment-method": null, "hours": null, "location": null, "aka": "Jobob's Barbeque", "categories": ["Barbecue", "Restaurants,", "Caterers,", "Restaurants"]}, "name": "Jobob's Bbq", "locality": "Tucson", "website-url": "http://www.jobobsbbq.com", "region": "AZ", "id": 113, "street-address": "7090 S Craycroft Rd", "phone-number": "(520) 297-7788", "postal-code": "85756"}, "114": {"information": {"general-info": null, "payment-method": ["all", "major", "credit", "cards,", "debit"], "hours": null, "location": "Orange Grove Village Shpg Ctr", "aka": "The Parish GastropubParish Gastropub", "categories": ["Barbecue", "Restaurants,", "Bar", "&", "Grills,", "American", "Restaurants,", "Restaurants"]}, "name": "The Parish", "locality": "Tucson", "website-url": "http://www.theparishtucson.com", "region": "AZ", "id": 114, "street-address": "6453 N Oracle Rd", "phone-number": "(520) 797-1233", "postal-code": "85704"}, "115": {"information": {"general-info": null, "payment-method": null, "hours": null, "location": null, "aka": null, "categories": ["Barbecue", "Restaurants,", "Caterers,", "Restaurants"]}, "name": "Bbq 4u", "locality": "Tucson", "website-url": null, "region": "AZ", "id": 115, "street-address": "2461 N Amberwood Dr", "phone-number": "(520) 749-1492", "postal-code": "85749"}, "116": {"information": {"general-info": null, "payment-method": null, "hours": null, "location": "Plaza Escondida", "aka": null, "categories": ["Barbecue", "Restaurants,", "Restaurants,", "Caterers"]}, "name": "Dickey's Barbecue Pit", "locality": "Tucson", "website-url": "http://www.dickeys.com", "region": "AZ", "id": 116, "street-address": "7850 N Oracle Rd", "phone-number": "(520) 219-5742", "postal-code": "85704"}, "117": {"information": {"general-info": null, "payment-method": ["amex,", "discover,", "master", "card,", "visa"], "hours": null, "location": null, "aka": null, "categories": ["American", "Restaurants,", "Barbecue", "Restaurants,", "Caterers,", "Restaurants"]}, "name": "Chuys Mesquite Broiler", "locality": "Tucson", "website-url": "http://www.chuystucson.com", "region": "AZ", "id": 117, "street-address": "7585 S Houghton Rd", "phone-number": "(520) 664-0303", "postal-code": "85747"}, "118": {"information": {"general-info": null, "payment-method": null, "hours": {"Mo-Su": "11:00-21:00"}, "location": "Cortaro Ctr", "aka": "Mamas Hawaiian BBQ", "categories": ["Barbecue", "Restaurants,", "Restaurants"]}, "name": "Mama Hawaiian Bar-B-Cue", "locality": "Tucson", "website-url": "http://www.mamashawaiianbbq.com", "region": "AZ", "id": 118, "street-address": "8300 N Thornydale Rd", "phone-number": "(520) 572-5225", "postal-code": "85741"}, "119": {"information": {"general-info": null, "payment-method": null, "hours": null, "location": null, "aka": "The Settlement", "categories": ["Barbecue", "Restaurants,", "Restaurants"]}, "name": "Settlement Smokehouse", "locality": "Tucson", "website-url": "http://www.settlementsmokehouse.com", "region": "AZ", "id": 119, "street-address": "5400 S Old Spanish Trl", "phone-number": "(520) 885-4600", "postal-code": "85747"}}